[
  {
    "id": "ChIJd7zN_thz54gRnr-lPAaywwo",
    "name": "Orlando",
    "lat": 28.5383832,
    "lng": -81.3789269,
    "address": "Orlando"
  },
  {
    "id": "ChIJKwL9_gF754gRpAqJys_VQMo",
    "name": "Grand Bohemian Orlando, Autograph Collection",
    "lat": 28.5389083,
    "lng": -81.3782669,
    "address": "325 South Orange Avenue, Orlando",
    "rating": 4.4
  },
  {
    "id": "ChIJAXxL_vx654gRzpoeMOGaVFM",
    "name": "Embassy Suites by Hilton Orlando Downtown",
    "lat": 28.5417953,
    "lng": -81.3755058,
    "address": "191 East Pine Street, Orlando",
    "rating": 4.3
  },
  {
    "id": "ChIJ31NUZ-R654gRPBqM9PiY_k8",
    "name": "Eo Inn",
    "lat": 28.5455818,
    "lng": -81.36966799999999,
    "address": "227 North Eola Drive B, Orlando",
    "rating": 3.8
  },
  {
    "id": "ChIJm0gB3vd654gRpYMYcTE7OC8",
    "name": "Crowne Plaza Orlando-Downtown by IHG",
    "lat": 28.55228919999999,
    "lng": -81.3836015,
    "address": "304 West Colonial Drive, Orlando",
    "rating": 4.1
  },
  {
    "id": "ChIJ_S1iOvF654gRtbuIdK1-nAU",
    "name": "Courtyard by Marriott Orlando Downtown",
    "lat": 28.55416870000001,
    "lng": -81.3774566,
    "address": "730 North Magnolia Avenue, Orlando",
    "rating": 4.4
  },
  {
    "id": "ChIJj8r5hAF754gRV-zbPyaz_RE",
    "name": "Aloft Orlando Downtown",
    "lat": 28.5364913,
    "lng": -81.37904089999999,
    "address": "500 South Orange Avenue, Orlando",
    "rating": 4.3
  },
  {
    "id": "ChIJHUPQKlZ654gR85uckl4JGO0",
    "name": "Bob Carr Theater",
    "lat": 28.547868,
    "lng": -81.384125,
    "address": "401 West Livingston Street, Orlando",
    "rating": 4.3
  },
  {
    "id": "ChIJMfdMl_5654gRpZP9kPXrotU",
    "name": "The Beacham",
    "lat": 28.5429997,
    "lng": -81.3791995,
    "address": "46 North Orange Avenue, Orlando",
    "rating": 4
  },
  {
    "id": "ChIJy2hQWgh754gR1faP54OYZE4",
    "name": "Orlando Station",
    "lat": 28.5259777,
    "lng": -81.3816666,
    "address": "1400 Sligh Boulevard, Orlando",
    "rating": 3.8
  },
  {
    "id": "ChIJ-9TcQw9754gR1jMwWGdjpkI",
    "name": "Orlando Health Neuropsychology Consultants",
    "lat": 28.5307992,
    "lng": -81.3776651,
    "address": "32 West Gore Street 5th Floor, Orlando",
    "rating": 4.8
  },
  {
    "id": "ChIJjVl2l_5654gRVQGtxg_3lnw",
    "name": "The Social",
    "lat": 28.5431712,
    "lng": -81.3791758,
    "address": "54 North Orange Avenue, Orlando",
    "rating": 4.1
  },
  {
    "id": "ChIJu3hNU-N654gR0x0I9_3iNvc",
    "name": "Lake Eola Park",
    "lat": 28.5427628,
    "lng": -81.37092919999999,
    "address": "512 East Washington Street, Orlando",
    "rating": 4.7
  },
  {
    "id": "ChIJC9h9qwN754gR0x0TnGEHmRo",
    "name": "The Courtyard at Lake Lucerne",
    "lat": 28.535881,
    "lng": -81.37535199999999,
    "address": "211 North Lucerne Circle West, Orlando",
    "rating": 4.6
  },
  {
    "id": "ChIJ12n60al754gRnLj_amTqAZM",
    "name": "Mears Transportation",
    "lat": 28.5308067,
    "lng": -81.3835577,
    "address": "324 West Gore Street, Orlando",
    "rating": 4.2
  },
  {
    "id": "ChIJo1f_hPl654gRXmZ13-wy_HM",
    "name": "Orange County Traffic Fines",
    "lat": 28.5482276,
    "lng": -81.37783379999999,
    "address": "425 North Orange Avenue #410, Orlando",
    "rating": 2.3
  },
  {
    "id": "ChIJQQqikv5654gRoabKIQmsFaM",
    "name": "Wells Fargo Bank",
    "lat": 28.5443017,
    "lng": -81.3788037,
    "address": "131 North Orange Avenue Ste 105, Orlando",
    "rating": 2.9
  },
  {
    "id": "ChIJyRaIJPx654gRhAbigeu9AMg",
    "name": "Orange County Regional History Center",
    "lat": 28.5428406,
    "lng": -81.3777927,
    "address": "65 East Central Boulevard, Orlando",
    "rating": 4.7
  },
  {
    "id": "ChIJo1f_hPl654gRdqEYph79_EE",
    "name": "Honorable A Thomas Mihok",
    "lat": 28.5482066,
    "lng": -81.3777424,
    "address": "425 North Orange Avenue, Orlando"
  },
  {
    "id": "ChIJo1f_hPl654gRNBJiQp7_m8o",
    "name": "Honorable Sally DM Kest",
    "lat": 28.548309,
    "lng": -81.3780063,
    "address": "425 North Orange Avenue # 1715, Orlando",
    "rating": 1
  }
]